[
  {
    "id": 1,
    "name": "Berlin",
    "description": "The capital city of Germany, also a federal state in its own right.",
    "lat": 52.52,
    "lon": 13.405,
    "moreInfoUrl": "https://en.wikipedia.org/wiki/Berlin",
    "imageUrls": ["https://i.natgeofe.com/n/b234ec7d-a988-4b75-9e65-749ddcbea7a0/citylife_berlin_2B4H3T1_web_2x1.jpg", "https://cdn.britannica.com/49/179449-138-9F4EC401/Overview-Berlin.jpg?w=800&h=450&c=crop"]
  },
  {
    "id": 2,
    "name": "Hamburg",
    "description": "A city-state in northern Germany, known for its port and maritime heritage.",
    "lat": 53.5511,
    "lon": 9.9937,
    "moreInfoUrl": "https://en.wikipedia.org/wiki/Hamburg",
    "imageUrls": ["https://upload.wikimedia.org/wikipedia/commons/7/79/Skyline_Berlin_Mitte.jpg"]
  },
  {
    "id": 3,
    "name": "Bremen",
    "description": "A city-state in northwestern Germany, part of the Bremen-Oldenburg metropolitan region.",
    "lat": 53.0793,
    "lon": 8.8017,
    "moreInfoUrl": "https://en.wikipedia.org/wiki/Bremen",
    "imageUrls": ["https://upload.wikimedia.org/wikipedia/commons/7/79/Skyline_Berlin_Mitte.jpg"]
  },
  {
    "id": 4,
    "name": "Munich",
    "description": "The capital of Bavaria, famous for its Oktoberfest and cultural attractions.",
    "lat": 48.1351,
    "lon": 11.582,
    "moreInfoUrl": "https://en.wikipedia.org/wiki/Munich",
   "imageUrls": ["https://upload.wikimedia.org/wikipedia/commons/7/79/Skyline_Berlin_Mitte.jpg"]
  },
  {
    "id": 5,
    "name": "Stuttgart",
    "description": "The capital of Baden-Württemberg, a hub for the automotive industry.",
    "lat": 48.7758,
    "lon": 9.1829,
    "moreInfoUrl": "https://en.wikipedia.org/wiki/Stuttgart",
    "imageUrls": ["https://upload.wikimedia.org/wikipedia/commons/7/79/Skyline_Berlin_Mitte.jpg"]
  },
  {
    "id": 6,
    "name": "Düsseldorf",
    "description": "The capital of North Rhine-Westphalia, known for its fashion industry and art scene.",
    "lat": 51.2277,
    "lon": 6.7735,
    "moreInfoUrl": "https://en.wikipedia.org/wiki/Düsseldorf",
    "imageUrls": ["https://upload.wikimedia.org/wikipedia/commons/7/79/Skyline_Berlin_Mitte.jpg"]
  },
  {
    "id": 7,
    "name": "Hannover",
    "description": "The capital of Lower Saxony, known for its trade fairs and gardens.",
    "lat": 52.3759,
    "lon": 9.732,
    "moreInfoUrl": "https://en.wikipedia.org/wiki/Hanover",
    "imageUrls": ["https://upload.wikimedia.org/wikipedia/commons/7/79/Skyline_Berlin_Mitte.jpg"]
  },
  {
    "id": 8,
    "name": "Wiesbaden",
    "description": "The capital of Hesse, famous for its thermal springs and spa culture.",
    "lat": 50.0826,
    "lon": 8.24,
    "moreInfoUrl": "https://en.wikipedia.org/wiki/Wiesbaden",
    "imageUrls": ["https://upload.wikimedia.org/wikipedia/commons/7/79/Skyline_Berlin_Mitte.jpg"]
  },
  {
    "id": 9,
    "name": "Mainz",
    "description": "The capital of Rhineland-Palatinate, known for its Roman history and wine culture.",
    "lat": 49.9929,
    "lon": 8.2473,
    "moreInfoUrl": "https://en.wikipedia.org/wiki/Mainz",
    "imageUrls": ["https://upload.wikimedia.org/wikipedia/commons/7/79/Skyline_Berlin_Mitte.jpg"]
  },
  {
    "id": 10,
    "name": "Saarbrücken",
    "description": "The capital of Saarland, located near the French border.",
    "lat": 49.2402,
    "lon": 6.9969,
    "moreInfoUrl": "https://en.wikipedia.org/wiki/Saarbrücken",
   "imageUrls": ["https://upload.wikimedia.org/wikipedia/commons/7/79/Skyline_Berlin_Mitte.jpg"]
  },
  {
    "id": 11,
    "name": "Kiel",
    "description": "The capital of Schleswig-Holstein, known for its maritime heritage and proximity to the Baltic Sea.",
    "lat": 54.3233,
    "lon": 10.1228,
    "moreInfoUrl": "https://en.wikipedia.org/wiki/Kiel",
   "imageUrls": ["https://upload.wikimedia.org/wikipedia/commons/7/79/Skyline_Berlin_Mitte.jpg"]
  },
  {
    "id": 12,
    "name": "Magdeburg",
    "description": "The capital of Saxony-Anhalt, a city with a rich medieval history.",
    "lat": 52.1205,
    "lon": 11.6276,
    "moreInfoUrl": "https://en.wikipedia.org/wiki/Magdeburg",
    "imageUrls": ["https://upload.wikimedia.org/wikipedia/commons/7/79/Skyline_Berlin_Mitte.jpg"]
  },
  {
    "id": 13,
    "name": "Potsdam",
    "description": "The capital of Brandenburg, known for its palaces and parks.",
    "lat": 52.3906,
    "lon": 13.0645,
    "moreInfoUrl": "https://en.wikipedia.org/wiki/Potsdam",
   "imageUrls": ["https://upload.wikimedia.org/wikipedia/commons/7/79/Skyline_Berlin_Mitte.jpg"]
  },
  {
    "id": 14,
    "name": "Erfurt",
    "description": "The capital of Thuringia, famous for its well-preserved medieval city center.",
    "lat": 50.9848,
    "lon": 11.0299,
    "moreInfoUrl": "https://en.wikipedia.org/wiki/Erfurt",
    "imageUrls": ["https://upload.wikimedia.org/wikipedia/commons/7/79/Skyline_Berlin_Mitte.jpg"]
  },
  {
    "id": 15,
    "name": "Dresden",
    "description": "The capital of Saxony, known for its art museums and Baroque architecture.",
    "lat": 51.0504,
    "lon": 13.7373,
    "moreInfoUrl": "https://en.wikipedia.org/wiki/Dresden",
   "imageUrls": ["https://upload.wikimedia.org/wikipedia/commons/7/79/Skyline_Berlin_Mitte.jpg"]
  },
  {
    "id": 16,
    "name": "Schwerin",
    "description": "The capital of Mecklenburg-Western Pomerania, known for its picturesque lakes and castles.",
    "lat": 53.6355,
    "lon": 11.414,
    "moreInfoUrl": "https://en.wikipedia.org/wiki/Schwerin",
    "imageUrls": ["https://upload.wikimedia.org/wikipedia/commons/7/79/Skyline_Berlin_Mitte.jpg"]
  }
]
